[{"_id":"65e4e8b35db43067c84402d5","doorNameEng":"Al Aqiq Gate","doorNameArb":"باب الإمام البخاري","latitude":24.46894045071373,"longitude":39.60920399234654,"gateNumber":"11","additionalInfo":"Additional Info for Door 2","doorOrigin":"Madinah","doorImage1":"http://res.cloudinary.com/dh61apvbf/image/upload/v1709500594/doors/scwbvff9fmjo6gm4i4p9.jpg","__v":0,"doorVideo":"http://res.cloudinary.com/dh61apvbf/video/upload/v1709500794/doors/uvqiauvyjuagvmg36kaw.mp4","doorImage2":"http://res.cloudinary.com/dh61apvbf/image/upload/v1709500836/doors/dkvhp1in1feyhadnat72.jpg","doorImage3":"http://res.cloudinary.com/dh61apvbf/image/upload/v1709500838/doors/dy1rbge9oh5wccq3ufbl.jpg"},{"_id":"65e4e8345db43067c84402d1","doorNameEng":"Imam Al Bukhari Gate","doorNameArb":"باب الإمام البخاري","latitude":24.46872316315713,"longitude":39.609265978002306,"gateNumber":"10","additionalInfo":"Additional Info for Door 2","doorOrigin":"Madinah","doorImage1":"http://res.cloudinary.com/dh61apvbf/image/upload/v1709500467/doors/ghxvpeziiqx1adxavx6u.jpg","__v":0},{"_id":"65e4e7c85db43067c84402cf","doorNameEng":"King Saud Gate","doorNameArb":"باب الملك سعود","latitude":24.4689687276312,"longitude":39.61060782405644,"gateNumber":"7, 8, 9","additionalInfo":"Additional Info for Door 2","doorOrigin":"Madinah","doorImage1":"http://res.cloudinary.com/dh61apvbf/image/upload/v1709500360/doors/gg9op5cakblu7qo31qpu.jpg","__v":0},{"_id":"65e4e78a5db43067c84402cd","doorNameEng":"Quba Gate","doorNameArb":"بوابة قباء","latitude":24.468600113245436,"longitude":39.61154661610519,"gateNumber":"37","additionalInfo":"Additional Info for Door 2","doorOrigin":"Madinah","doorImage1":"http://res.cloudinary.com/dh61apvbf/image/upload/v1709500298/doors/go886wtolqy2suxwciyr.jpg","__v":0},{"_id":"65e4e73e5db43067c84402cb","doorNameEng":"Al Rahma Gate","doorNameArb":"باب الرحمة","latitude":24.46836816931071,"longitude":39.61191676269009,"gateNumber":"3","additionalInfo":"Additional Info for Door 2","doorOrigin":"Madinah","doorImage1":"http://res.cloudinary.com/dh61apvbf/image/upload/v1709500221/doors/ixwje2kzazpynvdhftcu.jpg","__v":0},{"_id":"65e4e7035db43067c84402c9","doorNameEng":"Abu Bakr Siddiq Gate","doorNameArb":"باب أبي بكر الصديق","latitude":24.46829484232614,"longitude":39.61295473088606,"gateNumber":"2","additionalInfo":"Additional Info for Door 2","doorOrigin":"Madinah","doorImage1":"http://res.cloudinary.com/dh61apvbf/image/upload/v1709500162/doors/ehtzzatjf4ykbjbkxacs.jpg","__v":0},{"_id":"65e4e6d95db43067c84402c7","doorNameEng":"Al Hijrah Gate","doorNameArb":"باب الهجرة","latitude":24.467885919450588,"longitude":39.610490904464825,"gateNumber":"4","additionalInfo":"Additional Info for Door 2","doorOrigin":"Madinah","doorImage1":"http://res.cloudinary.com/dh61apvbf/image/upload/v1709500121/doors/wk7xsexsgbh4r9hcdomb.jpg","__v":0},{"_id":"65e4e6315db43067c84402c3","doorNameEng":"Al Baqia Gate","doorNameArb":"باب البقيع","latitude":24.467489099648073,"longitude":39.61155326513322,"gateNumber":"41","additionalInfo":"Additional Info for Door 2","doorOrigin":"Madinah","doorImage1":"http://res.cloudinary.com/dh61apvbf/image/upload/v1709499953/doors/fjqkvi0lmhygq3mvdswy.jpg","__v":0},{"_id":"65e4e5f45db43067c84402c1","doorNameEng":"Bab al-Nisa","doorNameArb":"باب النساء","latitude":24.467779259945782,"longitude":39.6116633634561,"gateNumber":"39","additionalInfo":"Additional Info for Door 2","doorOrigin":"Madinah","doorImage1":"http://res.cloudinary.com/dh61apvbf/image/upload/v1709499892/doors/l6848xqzyw5k5anp52zf.jpg","__v":0},{"_id":"65e4e5be5db43067c84402bf","doorNameEng":"Bilal Gate","doorNameArb":"باب بلال","latitude":24.4683901466424,"longitude":39.612922593373185,"gateNumber":"38","additionalInfo":"Additional Info for Door 2","doorOrigin":"Madinah","doorImage1":"http://res.cloudinary.com/dh61apvbf/image/upload/v1709499837/doors/fbw3tczsnazqzai7r2z6.jpg","__v":0},{"_id":"65e4e5885db43067c84402bd","doorNameEng":"Makkah Gate","doorNameArb":"باب مكة","latitude":24.46799290717678,"longitude":39.612302790102014,"gateNumber":"37","additionalInfo":"Additional Info for Door 2","doorOrigin":"Madinah","doorImage1":"http://res.cloudinary.com/dh61apvbf/image/upload/v1709499783/doors/iaxf0b3gpmr0s6vallid.jpg","__v":0},{"_id":"65e4e5545db43067c84402bb","doorNameEng":"King Abdul Aziz Gate","doorNameArb":"باب الملك عبد العزيز","latitude":24.468490483841883,"longitude":39.61303102592176,"gateNumber":"33, 34, 35","additionalInfo":"Additional Info for Door","doorOrigin":"Madinah","doorImage1":"http://res.cloudinary.com/dh61apvbf/image/upload/v1709499732/doors/eoyhmzbkftr0gyzafyxw.jpg","__v":0},{"_id":"65e4e51a5db43067c84402b9","doorNameEng":"Abu Dhar Al Ghifari Gate","doorNameArb":"باب أبي ذر الغفاري","latitude":24.469007724497985,"longitude":39.61313019776466,"gateNumber":"31 , 32","additionalInfo":"Additional Info for Door","doorOrigin":"Madinah","doorImage1":"http://res.cloudinary.com/dh61apvbf/image/upload/v1709499674/doors/ypzam4pij3wqxikpaheb.jpg","__v":0},{"_id":"65e4e2e85db43067c84402b3","doorNameEng":"Ali Bin Abi-Talib Gate","doorNameArb":"باب علي بن أبي طالب","latitude":24.469577317233956,"longitude":39.61307527689645,"gateNumber":"28, 29, 30","additionalInfo":"Additional Info for Door 2","doorOrigin":"Madinah","doorImage1":"http://res.cloudinary.com/dh61apvbf/image/upload/v1709499112/doors/udwmzzavz1racbmwytdx.jpg","__v":0},{"_id":"65e4e2895db43067c84402b1","doorNameEng":"Ohud Gate","doorNameArb":"بوابة أحد","latitude":24.470587301510538,"longitude":39.61426102293633,"gateNumber":"23","additionalInfo":"no","doorOrigin":"Madinah","doorImage1":"http://res.cloudinary.com/dh61apvbf/image/upload/v1709499017/doors/a9gldpwqs0izj7vtyi7q.jpg","__v":0},{"_id":"65e4e0ca355c364a60f971b2","doorNameEng":"Usman Bin Affan Gate","doorNameArb":"باب عثمان بن عفان","latitude":24.469950917117583,"longitude":39.61232276431466,"gateNumber":"24 , 25, 26","additionalInfo":"no","doorOrigin":"Madinah","doorImage1":"http://res.cloudinary.com/dh61apvbf/image/upload/v1709498570/doors/esgoroprrl1qbr6r6xcy.jpg","__v":0},{"_id":"65e4e035355c364a60f971b0","doorNameEng":"King Fahd Gate","doorNameArb":"بوابة الملك فهد","latitude":24.469949804483846,"longitude":39.61112206865242,"gateNumber":"20, 21, 22","additionalInfo":"no","doorOrigin":"Madinah","doorImage1":"http://res.cloudinary.com/dh61apvbf/image/upload/v1709498420/doors/blpcfwx7l3guqylwwofz.jpg","__v":0},{"_id":"65e4dfbf355c364a60f971ae","doorNameEng":"Omar Bin Khattab Gate","doorNameArb":"باب عمر بن الخطاب","latitude":24.470448138320283,"longitude":39.61085197064237,"gateNumber":"18","additionalInfo":"no","doorOrigin":"Madinah","doorImage1":"http://res.cloudinary.com/dh61apvbf/image/upload/v1709498303/doors/ct8xkug0chamcyxseylc.jpg","__v":0},{"_id":"65e4df72355c364a60f971ac","doorNameEng":"Badr Gate","doorNameArb":"باب بدر","latitude":24.469876860561342,"longitude":39.61049384265723,"gateNumber":"69","additionalInfo":"no","doorOrigin":"Madinah","doorImage1":"http://res.cloudinary.com/dh61apvbf/image/upload/v1709498225/doors/yi4bzvvt85a9rizn5w3h.jpg","__v":0},{"_id":"65e4df28355c364a60f971aa","doorNameEng":"Jebril Gate","doorNameArb":"بوابة جبريل","latitude":24.467599883820796,"longitude":39.611579167637395,"gateNumber":"40","additionalInfo":"no","doorOrigin":"Madinah","doorImage1":"http://res.cloudinary.com/dh61apvbf/image/upload/v1709498151/doors/xkxod8p6iukppsobzabs.jpg","__v":0},{"_id":"65e4dee1355c364a60f971a8","doorNameEng":"Bab as-Salam (Essalam Gate)","doorNameArb":"باب السلام (بوابة السلام)","latitude":24.467458205294985,"longitude":39.61067473396128,"gateNumber":"1","additionalInfo":"no","doorOrigin":"Madinah","doorImage1":"http://res.cloudinary.com/dh61apvbf/image/upload/v1709498081/doors/rv5zfjpof4pimujsscxc.jpg","__v":0},{"_id":"65e4de20355c364a60f971a6","doorNameEng":"Bab Al-Fatah","doorNameArb":"باب الفتح","latitude":21.42395770182102,"longitude":39.82630112527849,"gateNumber":"45","additionalInfo":"no","doorOrigin":"Makkah","doorImage1":"http://res.cloudinary.com/dh61apvbf/image/upload/v1709497888/doors/i04pl4rt8wp5rbz2y0et.jpg","__v":0},{"_id":"65e4dddc355c364a60f971a4","doorNameEng":"Bab Al Umrah","doorNameArb":"باب العمرة","latitude":21.422781805627704,"longitude":39.824735593649855,"gateNumber":"40","additionalInfo":"no","doorOrigin":"Makkah","doorImage1":"http://res.cloudinary.com/dh61apvbf/image/upload/v1709497819/doors/s4fxvcarp5jyksbhuxjd.jpg","__v":0},{"_id":"65e4dd7d355c364a60f971a2","doorNameEng":"Bab Ajyad Gate","doorNameArb":"باب أجياد","latitude":21.4204764,"longitude":39.8206598,"gateNumber":"5","additionalInfo":"no","doorOrigin":"Makkah","doorImage1":"http://res.cloudinary.com/dh61apvbf/image/upload/v1709497724/doors/auawcfqjfbaauf3avikw.jpg","__v":0},{"_id":"65e4dd25355c364a60f971a0","doorNameEng":"Bab Al-Marwa Gate","doorNameArb":"باب باب المروة","latitude":21.4214764,"longitude":39.8221598,"gateNumber":"23","additionalInfo":"no","doorOrigin":"Makkah","doorImage1":"http://res.cloudinary.com/dh61apvbf/image/upload/v1709497636/doors/tlcds6b3hi5ql79xr0a2.jpg","doorImage2":"http://res.cloudinary.com/dh61apvbf/image/upload/v1709497637/doors/uvyu9pglh1xvudovbe7h.jpg","__v":0},{"_id":"65e4dce2355c364a60f9719e","doorNameEng":"Bab Al-Salam Gate","doorNameArb":"باب باب السلام","latitude":21.422734577651656,"longitude":39.82772159716308,"gateNumber":"4","additionalInfo":"no","doorOrigin":"Makkah","doorImage1":"http://res.cloudinary.com/dh61apvbf/image/upload/v1709497568/doors/nmwbs4z2uc788jxb5ym6.jpg","doorImage2":"http://res.cloudinary.com/dh61apvbf/image/upload/v1709497570/doors/yj9qj44esneqrqdm4rzv.jpg","__v":0},{"_id":"65e4dc9c355c364a60f9719c","doorNameEng":"King Abdul Aziz Gate'","doorNameArb":"باب الملك عبد العزيز","latitude":21.421165514279668,"longitude":39.82582857190423,"gateNumber":"1","additionalInfo":"no","doorOrigin":"Makkah","doorImage1":"http://res.cloudinary.com/dh61apvbf/image/upload/v1709497499/doors/n1ev8knr4xbnopl9bahz.jpg","__v":0},{"_id":"65e4dc28355c364a60f9719a","doorNameEng":"King Fahd Gate","doorNameArb":"بوابة الملك فهد","latitude":21.421308228316587,"longitude":39.8242299666066,"gateNumber":"79","additionalInfo":"no","doorOrigin":"Makkah","doorImage1":"http://res.cloudinary.com/dh61apvbf/image/upload/v1709497383/doors/uzrafb5r6tcnlwpksmgb.jpg","doorImage2":"http://res.cloudinary.com/dh61apvbf/image/upload/v1709497384/doors/dq8yx46gog6xkn4dnje7.jpg","__v":0},{"_id":"65e4db55355c364a60f97198","doorNameEng":"King Abdullah Gate","doorNameArb":"باب الملك عبدالله","latitude":21.425281000718684,"longitude":39.82421153109279,"gateNumber":"100","additionalInfo":"Additional Info for Door 1","doorOrigin":"Makkah","doorImage1":"http://res.cloudinary.com/dh61apvbf/image/upload/v1709497172/doors/vgk24ixbizyw4gq5en92.jpg","doorImage2":"http://res.cloudinary.com/dh61apvbf/image/upload/v1709497173/doors/hmqenihwluvvjje9yu5y.jpg","__v":0}]